Time,TimeMS,Clock,Pulse,Pulse_low,Pulse_high,SpO2,SpO2_low,SpO2_high,Respiratory_rate,Respiratory_rate_low,Respiratory_rate_high,BloodPressure_Sys,BloodPressure_Sys_low,BloodPressure_Sys_high,Temp,Temp_low,Temp_high,,,,,,,,,,,,,,,,,,,,,,,,,
00:09:50_000,590000,17:43,59,60,100,100,94,100,5,12,18,93,90,120,85,97,99,,,,,,,,,,,,,-0.125,0.72161,38,,,2.38281,-1.10927,-54.2,,,,0,0
00:09:50_010,590010,17:43,59,60,100,100,94,100,5,12,18,93,90,120,85,97,99,,,,,,,,,,,,,-0.12,0.74237,38,,,2.38854,-1.06413,-54.4,,,,0,0
00:09:50_020,590020,17:43,59,60,100,100,94,100,5,12,18,93,90,120,85,97,99,,,,,,,,,,,,,-0.115,0.74212,38.1,,,2.37224,-1.01823,-54.5,,,,0,0
00:09:50_030,590030,17:43,59,60,100,100,94,100,5,12,18,93,90,120,85,97,99,,,,,,,,,,,,,-0.115,0.73651,38.1,,,2.34708,-0.9864,-54.7,,,,0,0
00:09:50_040,590040,17:43,59,60,100,100,94,100,5,12,18,93,90,120,85,97,99,,,,,,,,,,,,,-0.115,0.72698,38.1,,,2.33882,-0.93617,-54.9,,,,0,0
00:09:50_050,590050,17:43,59,60,100,100,94,100,5,12,18,93,90,120,85,97,99,,,,,,,,,,,,,-0.115,0.69206,38.1,,,2.34314,-0.90191,-55,,,,0,0
00:09:50_060,590060,17:43,59,60,100,100,94,100,5,12,18,93,90,120,85,97,99,,,,,,,,,,,,,-0.11,0.67473,38.1,,,2.33859,-0.8833,-55.2,,,,0,0
00:09:50_070,590070,17:43,59,60,100,100,94,100,5,12,18,93,90,120,85,97,99,,,,,,,,,,,,,-0.105,0.65788,38.2,,,2.35845,-0.9733,-55.3,,,,0,0
00:09:50_080,590080,17:43,59,60,100,100,94,100,5,12,18,93,90,120,85,97,99,,,,,,,,,,,,,-0.105,0.63199,38.2,,,2.38363,-1.11333,-55.5,,,,0,0
00:09:50_090,590090,17:43,59,60,100,100,94,100,5,12,18,93,90,120,85,97,99,,,,,,,,,,,,,-0.1,0.59438,38.2,,,2.39153,-1.21748,-55.7,,,,0,0
00:09:50_100,590100,17:43,59,60,100,100,94,100,5,12,18,93,90,120,85,97,99,,,,,,,,,,,,,-0.095,0.56557,38.2,,,2.37259,-1.23855,-55.9,,,,0,0
00:09:50_110,590110,17:43,59,60,100,100,94,100,5,12,18,93,90,120,85,97,99,,,,,,,,,,,,,-0.095,0.54628,38.2,,,2.34739,-1.17904,-56.1,,,,0,0
00:09:50_120,590120,17:43,59,60,100,100,94,100,5,12,18,93,90,120,85,97,99,,,,,,,,,,,,,-0.095,0.52723,38.2,,,2.34349,-1.17142,-56.3,,,,0,0
00:09:50_130,590130,17:43,59,60,100,100,94,100,5,12,18,93,90,120,85,97,99,,,,,,,,,,,,,-0.095,0.48987,38.3,,,2.33829,-1.16608,-56.5,,,,0,0
00:09:50_140,590140,17:43,59,60,100,100,94,100,5,12,18,93,90,120,85,97,99,,,,,,,,,,,,,-0.09,0.47155,38.3,,,2.3131,-1.14677,-56.7,,,,0,0
00:09:50_150,590150,17:43,59,60,100,100,94,100,5,12,18,93,90,120,85,97,99,,,,,,,,,,,,,-0.09,0.45372,38.3,,,2.29894,-1.03161,-56.9,,,,0,0
00:09:50_160,590160,17:43,59,60,100,100,94,100,5,12,18,93,90,120,85,97,99,,,,,,,,,,,,,-0.09,0.43858,38.3,,,2.30469,-0.90971,-57,,,,0,0
00:09:50_170,590170,17:43,59,60,100,100,94,100,5,12,18,93,90,120,85,97,99,,,,,,,,,,,,,-0.085,0.4105,38.3,,,2.30469,-0.86322,-57.2,,,,0,0
00:09:50_180,590180,17:43,59,60,100,100,94,100,5,12,18,93,90,120,85,97,99,,,,,,,,,,,,,-0.085,0.39634,38.3,,,2.30469,-0.8243,-57.3,,,,0,0
00:09:50_190,590190,17:43,59,60,100,100,94,100,5,12,18,93,90,120,85,97,99,,,,,,,,,,,,,-0.085,0.38339,38.3,,,2.30469,-0.79391,-57.4,,,,0,0
00:09:50_200,590200,17:43,59,60,100,100,94,100,5,12,18,93,90,120,85,97,99,,,,,,,,,,,,,-0.085,0.37192,38.4,,,2.30469,-0.73936,-57.6,,,,0,0
00:09:50_210,590210,17:43,59,60,100,100,94,100,5,12,18,93,90,120,85,97,99,,,,,,,,,,,,,-0.08,0.35385,38.4,,,2.30469,-0.70549,-57.7,,,,0,0
00:09:50_220,590220,17:43,59,60,100,100,94,100,5,12,18,93,90,120,85,97,99,,,,,,,,,,,,,-0.07,0.3475,38.4,,,2.30469,-0.69474,-57.8,,,,0,0
00:09:50_230,590230,17:43,59,60,100,100,94,100,5,12,18,93,90,120,85,97,99,,,,,,,,,,,,,-0.05,0.34286,38.4,,,2.30832,-0.77896,-57.9,,,,0,0
00:09:50_240,590240,17:43,59,60,100,100,94,100,5,12,18,93,90,120,85,97,99,,,,,,,,,,,,,-0.02,0.33871,38.4,,,2.30029,-0.844,-58.1,,,,0,0
00:09:50_250,590250,17:43,59,60,100,100,94,100,5,12,18,93,90,120,85,97,99,,,,,,,,,,,,,-0.01,0.33919,38.4,,,2.27967,-0.78345,-58.2,,,,0,0
00:09:50_260,590260,17:43,59,60,100,100,94,100,5,12,18,93,90,120,85,97,99,,,,,,,,,,,,,0,0.34066,38.4,,,2.25995,-0.67901,-58.3,,,,0,0
00:09:50_270,590270,17:43,59,60,100,100,94,100,5,12,18,93,90,120,85,97,99,,,,,,,,,,,,,0.03,0.3431,38.4,,,2.265,-0.65783,-58.4,,,,0,0
00:09:50_280,590280,17:43,59,60,100,100,94,100,5,12,18,93,90,120,85,97,99,,,,,,,,,,,,,0.04,0.34676,38.4,,,2.26563,-0.64305,-58.5,,,,0,0
00:09:50_290,590290,17:43,59,60,100,100,94,100,5,12,18,93,90,120,85,97,99,,,,,,,,,,,,,0.03,0.35678,38.5,,,2.26563,-0.65104,-58.6,,,,0,0
00:09:50_300,590300,17:43,59,60,100,100,94,100,5,12,18,93,90,120,85,97,99,,,,,,,,,,,,,-0.01,0.36264,38.5,,,2.26563,-0.65104,-58.7,,,,0,0
00:09:50_310,590310,17:43,59,60,100,100,94,100,5,12,18,93,90,120,85,97,99,,,,,,,,,,,,,-0.01,0.36264,38.5,,,2.26563,-0.65104,-58.8,,,,0,0
00:09:50_320,590320,17:43,59,60,100,100,94,100,5,12,18,93,90,120,85,97,99,,,,,,,,,,,,,-0.075,0.37607,38.5,,,2.26563,-0.66065,-59,,,,0,0
00:09:50_330,590330,17:43,59,60,100,100,94,100,5,12,18,93,90,120,85,97,99,,,,,,,,,,,,,-0.1,0.38315,38.5,,,2.27073,-0.58293,-59.1,,,,0,0
00:09:50_340,590340,17:43,59,60,100,100,94,100,5,12,18,93,90,120,85,97,99,,,,,,,,,,,,,-0.115,0.39829,38.5,,,2.24636,-0.50433,-59.1,,,,0,0
00:09:50_350,590350,17:43,59,60,100,100,94,100,5,12,18,93,90,120,85,97,99,,,,,,,,,,,,,-0.115,0.39829,38.5,,,2.24636,-0.50433,-59.2,,,,0,0
00:09:50_360,590360,17:43,59,60,100,100,94,100,5,12,18,93,90,120,85,97,99,,,,,,,,,,,,,-0.115,0.39829,38.5,,,2.24636,-0.50433,-59.3,,,,0,0
00:09:50_370,590370,17:43,59,60,100,100,94,100,5,12,18,93,90,120,85,97,99,,,,,,,,,,,,,-0.115,0.39829,38.5,,,2.24636,-0.50433,-59.4,,,,0,0
00:09:50_380,590380,17:43,59,60,100,100,94,100,5,12,18,93,90,120,85,97,99,,,,,,,,,,,,,-0.11,0.42589,38.5,,,2.19214,-0.35478,-59.4,,,,0,0
00:09:50_390,590390,17:43,59,60,100,100,94,100,5,12,18,93,90,120,85,97,99,,,,,,,,,,,,,-0.105,0.42906,38.6,,,2.18186,-0.27769,-59.5,,,,0,0
00:09:50_400,590400,17:43,59,60,100,100,94,100,5,12,18,93,90,120,85,97,99,,,,,,,,,,,,,-0.1,0.43199,38.6,,,2.1875,-0.25615,-59.5,,,,0,0
00:09:50_410,590410,17:43,59,60,100,100,94,100,5,12,18,93,90,120,85,97,99,,,,,,,,,,,,,-0.13,0.4315,38.6,,,2.1875,-0.21438,-59.6,,,,0,0
00:09:50_420,590420,17:43,59,60,100,100,94,100,5,12,18,93,90,120,85,97,99,,,,,,,,,,,,,-0.135,0.43004,38.6,,,2.18554,-0.18604,-59.6,,,,0,0
00:09:50_430,590430,17:43,59,60,100,100,94,100,5,12,18,93,90,120,85,97,99,,,,,,,,,,,,,0.06,0.42759,38.6,,,2.1845,-0.19479,-59.6,,,,0,0
00:09:50_440,590440,17:43,59,60,100,100,94,100,5,12,18,93,90,120,85,97,99,,,,,,,,,,,,,0.805,0.42125,38.6,,,2.20905,-0.16869,-59.7,,,,0,0
00:09:50_450,590450,17:43,59,60,100,100,94,100,5,12,18,93,90,120,85,97,99,,,,,,,,,,,,,1.18,0.41758,38.7,,,2.22988,-0.22043,-59.7,,,,0,0
00:09:50_460,590460,17:43,59,60,100,100,94,100,5,12,18,93,90,120,85,97,99,,,,,,,,,,,,,0.845,0.41441,38.7,,,2.22281,-0.33885,-59.8,,,,0,0
00:09:50_470,590470,17:43,59,60,100,100,94,100,5,12,18,93,90,120,85,97,99,,,,,,,,,,,,,0.13,0.41123,38.7,,,2.24686,-0.44547,-59.8,,,,0,0
00:09:50_480,590480,17:43,59,60,100,100,94,100,5,12,18,93,90,120,85,97,99,,,,,,,,,,,,,-0.085,0.4044,38.7,,,2.26487,-0.46458,-59.9,,,,0,0
00:09:50_490,590490,17:43,59,60,100,100,94,100,5,12,18,93,90,120,85,97,99,,,,,,,,,,,,,-0.11,0.40073,38.7,,,2.24178,-0.47558,-60,,,,0,0
00:09:50_500,590500,17:43,59,60,100,100,94,100,5,12,18,93,90,120,85,97,99,,,,,,,,,,,,,-0.115,0.39707,38.7,,,2.21353,-0.43035,-60.1,,,,0,0
00:09:50_510,590510,17:43,59,60,100,100,94,100,5,12,18,93,90,120,85,97,99,,,,,,,,,,,,,-0.125,0.39316,38.7,,,2.19557,-0.35431,-60.1,,,,0,0
00:09:50_520,590520,17:43,59,60,100,100,94,100,5,12,18,93,90,120,85,97,99,,,,,,,,,,,,,-0.125,0.38926,38.8,,,2.16248,-0.25908,-60.2,,,,0,0
00:09:50_530,590530,17:43,59,60,100,100,94,100,5,12,18,93,90,120,85,97,99,,,,,,,,,,,,,-0.125,0.38046,38.8,,,2.14575,-0.15902,-60.2,,,,0,0
00:09:50_540,590540,17:43,59,60,100,100,94,100,5,12,18,93,90,120,85,97,99,,,,,,,,,,,,,-0.12,0.37582,38.8,,,2.15419,-0.08153,-60.2,,,,0,0
00:09:50_550,590550,17:43,59,60,100,100,94,100,5,12,18,93,90,120,85,97,99,,,,,,,,,,,,,-0.115,0.37118,38.8,,,2.11986,-0.02217,-60.2,,,,0,0
00:09:50_560,590560,17:43,59,60,100,100,94,100,5,12,18,93,90,120,85,97,99,,,,,,,,,,,,,-0.105,0.36703,38.8,,,2.07018,0.00007,-60.2,,,,0,0
00:09:50_570,590570,17:43,59,60,100,100,94,100,5,12,18,93,90,120,85,97,99,,,,,,,,,,,,,-0.095,0.35922,38.9,,,2.06378,0.00545,-60.2,,,,0,0
00:09:50_580,590580,17:43,59,60,100,100,94,100,5,12,18,93,90,120,85,97,99,,,,,,,,,,,,,-0.075,0.35507,38.9,,,2.05905,0,-60.2,,,,0,0
00:09:50_590,590590,17:43,59,60,100,100,94,100,5,12,18,93,90,120,85,97,99,,,,,,,,,,,,,-0.065,0.35116,38.9,,,2.07056,0,-60.2,,,,0,0
00:09:50_600,590600,17:43,59,60,100,100,94,100,5,12,18,93,90,120,85,97,99,,,,,,,,,,,,,-0.055,0.3475,38.9,,,2.14772,0,-60.2,,,,0,0
00:09:50_610,590610,17:43,59,60,100,100,94,100,5,12,18,93,90,120,85,97,99,,,,,,,,,,,,,-0.035,0.34017,39,,,2.30223,0,-60.2,,,,0,0
00:09:50_620,590620,17:43,59,60,100,100,94,100,5,12,18,93,90,120,85,97,99,,,,,,,,,,,,,-0.015,0.337,39,,,2.39896,0,-60.2,,,,0,0
00:09:50_630,590630,17:43,59,60,100,100,94,100,5,12,18,93,90,120,85,97,99,,,,,,,,,,,,,0,0.33309,39,,,2.53893,0,-60.2,,,,0,0
00:09:50_640,590640,17:43,59,60,100,100,94,100,5,12,18,93,90,120,85,97,99,,,,,,,,,,,,,0.03,0.32869,39,,,2.62328,0,-60.2,,,,0,0
00:09:50_650,590650,17:43,59,60,100,100,94,100,5,12,18,93,90,120,85,97,99,,,,,,,,,,,,,0.07,0.32234,39,,,2.70064,0,-60.2,,,,0,0
00:09:50_660,590660,17:43,59,60,100,100,94,100,5,12,18,93,90,120,85,97,99,,,,,,,,,,,,,0.095,0.32015,39.1,,,2.75794,0,-60.2,,,,0,0
00:09:50_670,590670,17:43,59,60,100,100,94,100,5,12,18,93,90,120,85,97,99,,,,,,,,,,,,,0.135,0.31722,39.1,,,2.76644,0,-60.2,,,,0,0
00:09:50_680,590680,17:43,59,60,100,100,94,100,5,12,18,93,90,120,85,97,99,,,,,,,,,,,,,0.18,0.31087,39.1,,,2.80076,0,-60.2,,,,0,0
00:09:50_690,590690,17:43,59,60,100,100,94,100,5,12,18,93,90,120,85,97,99,,,,,,,,,,,,,0.205,0.30769,39.1,,,2.81609,0,-60.2,,,,0,0
00:09:50_700,590700,17:43,59,60,100,100,94,100,5,12,18,93,90,120,85,97,99,,,,,,,,,,,,,0.235,0.30452,39.1,,,2.8142,0,-60.2,,,,0,0
00:09:50_710,590710,17:43,59,60,100,100,94,100,5,12,18,93,90,120,85,97,99,,,,,,,,,,,,,0.25,0.30159,39.1,,,2.8125,0,-60.2,,,,0,0
00:09:50_720,590720,17:43,59,60,100,100,94,100,5,12,18,93,90,120,85,97,99,,,,,,,,,,,,,0.255,0.29597,39.1,,,2.81257,0,-60.2,,,,0,0
00:09:50_730,590730,17:43,59,60,100,100,94,100,5,12,18,93,90,120,85,97,99,,,,,,,,,,,,,0.255,0.29353,39.1,,,2.81825,0,-60.2,,,,0,0
00:09:50_740,590740,17:43,59,60,100,100,94,100,5,12,18,93,90,120,85,97,99,,,,,,,,,,,,,0.235,0.29133,39.2,,,2.80155,0,-60.2,,,,0,0
00:09:50_750,590750,17:43,59,60,100,100,94,100,5,12,18,93,90,120,85,97,99,,,,,,,,,,,,,0.205,0.28938,39.2,,,2.77876,0,-60.2,,,,0,0
00:09:50_760,590760,17:43,59,60,100,100,94,100,5,12,18,93,90,120,85,97,99,,,,,,,,,,,,,0.155,0.28816,39.2,,,2.76863,0,-60.2,,,,0,0
00:09:50_770,590770,17:43,59,60,100,100,94,100,5,12,18,93,90,120,85,97,99,,,,,,,,,,,,,0.09,0.28571,39.2,,,2.77344,0,-60.2,,,,0,0
00:09:50_780,590780,17:43,59,60,100,100,94,100,5,12,18,93,90,120,85,97,99,,,,,,,,,,,,,0.005,0.28425,39.2,,,2.77344,0,-60.2,,,,0,0
00:09:50_790,590790,17:43,59,60,100,100,94,100,5,12,18,93,90,120,85,97,99,,,,,,,,,,,,,-0.045,0.28254,39.2,,,2.77705,0,-60.2,,,,0,0
00:09:50_800,590800,17:43,59,60,100,100,94,100,5,12,18,93,90,120,85,97,99,,,,,,,,,,,,,-0.1,0.28083,39.2,,,2.77228,0,-60.2,,,,0,0
00:09:50_810,590810,17:43,59,60,100,100,94,100,5,12,18,93,90,120,85,97,99,,,,,,,,,,,,,-0.145,0.27766,39.2,,,2.75523,0,-60.2,,,,0,0
00:09:50_820,590820,17:43,59,60,100,100,94,100,5,12,18,93,90,120,85,97,99,,,,,,,,,,,,,-0.165,0.27595,39.2,,,2.71902,0,-60.2,,,,0,0
00:09:50_830,590830,17:43,59,60,100,100,94,100,5,12,18,93,90,120,85,97,99,,,,,,,,,,,,,-0.175,0.27448,39.2,,,2.69903,0,-60.2,,,,0,0
00:09:50_840,590840,17:43,59,60,100,100,94,100,5,12,18,93,90,120,85,97,99,,,,,,,,,,,,,-0.18,0.27179,39.2,,,2.69221,0,-60.2,,,,0,0
00:09:50_850,590850,17:43,59,60,100,100,94,100,5,12,18,93,90,120,85,97,99,,,,,,,,,,,,,-0.19,0.27155,39.2,,,2.69531,0,-60.2,,,,0,0
00:09:50_860,590860,17:43,59,60,100,100,94,100,5,12,18,93,90,120,85,97,99,,,,,,,,,,,,,-0.19,0.27155,39.2,,,2.69531,0,-60.2,,,,0,0
00:09:50_870,590870,17:43,59,60,100,100,94,100,5,12,18,93,90,120,85,97,99,,,,,,,,,,,,,-0.18,0.27131,39.3,,,2.69914,0,-60.2,,,,0,0
00:09:50_880,590880,17:43,59,60,100,100,94,100,5,12,18,93,90,120,85,97,99,,,,,,,,,,,,,-0.17,0.27131,39.3,,,2.69586,0,-60.2,,,,0,0
00:09:50_890,590890,17:43,59,60,100,100,94,100,5,12,18,93,90,120,85,97,99,,,,,,,,,,,,,-0.17,0.27082,39.3,,,2.67656,0,-60.2,,,,0,0
00:09:50_900,590900,17:43,59,60,100,100,94,100,5,12,18,93,90,120,85,97,99,,,,,,,,,,,,,-0.16,0.27057,39.3,,,2.6376,0,-60.2,,,,0,0
00:09:50_910,590910,17:43,59,60,100,100,94,100,5,12,18,93,90,120,85,97,99,,,,,,,,,,,,,-0.16,0.27057,39.3,,,2.62044,0,-60.2,,,,0,0
00:09:50_920,590920,17:43,59,60,100,100,94,100,5,12,18,93,90,120,85,97,99,,,,,,,,,,,,,-0.155,0.27131,39.3,,,2.61218,0,-60.2,,,,0,0
00:09:50_930,590930,17:43,59,60,100,100,94,100,5,12,18,93,90,120,85,97,99,,,,,,,,,,,,,-0.16,0.27741,39.3,,,2.61719,0,-60.2,,,,0,0
00:09:50_940,590940,17:43,59,60,100,100,94,100,5,12,18,93,90,120,85,97,99,,,,,,,,,,,,,-0.16,0.28449,39.3,,,2.61719,0,-60.2,,,,0,0
00:09:50_950,590950,17:43,59,60,100,100,94,100,5,12,18,93,90,120,85,97,99,,,,,,,,,,,,,-0.155,0.29621,39.3,,,2.61719,0,-60.2,,,,0,0
00:09:50_960,590960,17:43,59,60,100,100,94,100,5,12,18,93,90,120,85,97,99,,,,,,,,,,,,,-0.155,0.30989,39.3,,,2.61719,0,-60.2,,,,0,0
00:09:50_970,590970,17:43,59,60,100,100,94,100,5,12,18,93,90,120,85,97,99,,,,,,,,,,,,,-0.155,0.3514,39.3,,,2.61719,0,-60.2,,,,0,0
00:09:50_980,590980,17:43,59,60,100,100,94,100,5,12,18,93,90,120,85,97,99,,,,,,,,,,,,,-0.15,0.38217,39.3,,,2.61719,0,-60.2,,,,0,0
00:09:50_990,590990,17:43,59,60,100,100,94,100,5,12,18,93,90,120,85,97,99,,,,,,,,,,,,,-0.145,0.41832,39.3,,,2.61719,0,-60.2,,,,0,0
00:09:51_000,591000,17:43,59,60,100,100,94,100,5,12,18,93,90,120,85,97,99,,,,,,,,,,,,,-0.145,0.50061,39.3,,,2.62239,0,-60.2,,,,0,0
00:09:51_010,591010,17:43,59,60,100,100,94,100,5,12,18,93,90,120,85,97,99,,,,,,,,,,,,,-0.145,0.54335,39.3,,,2.61313,0,-60.2,,,,0,0
00:09:51_020,591020,17:43,59,60,100,100,94,100,5,12,18,93,90,120,85,97,99,,,,,,,,,,,,,-0.14,0.58462,39.3,,,2.59299,0,-60.2,,,,0,0
00:09:51_030,591030,17:43,59,60,100,100,94,100,5,12,18,93,90,120,85,97,99,,,,,,,,,,,,,-0.135,0.62247,39.3,,,2.55677,0,-60.2,,,,0,0
00:09:51_040,591040,17:43,59,60,100,100,94,100,5,12,18,93,90,120,85,97,99,,,,,,,,,,,,,-0.135,0.68303,39.3,,,2.53748,0,-60.2,,,,0,0
00:09:51_050,591050,17:43,59,60,100,100,94,100,5,12,18,93,90,120,85,97,99,,,,,,,,,,,,,-0.135,0.70159,39.3,,,2.5356,0,-60.2,,,,0,0
00:09:51_060,591060,17:43,59,60,100,100,94,100,5,12,18,93,90,120,85,97,99,,,,,,,,,,,,,-0.135,0.71331,39.3,,,2.53906,0,-60.2,,,,0,0
00:09:51_070,591070,17:43,59,60,100,100,94,100,5,12,18,93,90,120,85,97,99,,,,,,,,,,,,,-0.13,0.72161,39.3,,,2.53906,0,-60.2,,,,0,0
00:09:51_080,591080,17:43,59,60,100,100,94,100,5,12,18,93,90,120,85,97,99,,,,,,,,,,,,,-0.125,0.72527,39.3,,,2.53906,0,-60.2,,,,0,0
00:09:51_090,591090,17:43,59,60,100,100,94,100,5,12,18,93,90,120,85,97,99,,,,,,,,,,,,,-0.125,0.71917,39.3,,,2.53906,0,-60.2,,,,0,0
00:09:51_100,591100,17:43,59,60,100,100,94,100,5,12,18,93,90,120,85,97,99,,,,,,,,,,,,,-0.125,0.71062,39.3,,,2.53906,0,-60.2,,,,0,0
00:09:51_110,591110,17:43,59,60,100,100,94,100,5,12,18,93,90,120,85,97,99,,,,,,,,,,,,,-0.12,0.69915,39.3,,,2.53906,0,-60.2,,,,0,0
00:09:51_120,591120,17:43,59,60,100,100,94,100,5,12,18,93,90,120,85,97,99,,,,,,,,,,,,,-0.12,0.68571,39.3,,,2.53906,0,-60.2,,,,0,0
00:09:51_130,591130,17:43,59,60,100,100,94,100,5,12,18,93,90,120,85,97,99,,,,,,,,,,,,,-0.115,0.6547,39.3,,,2.53906,0,-60.2,,,,0,0
00:09:51_140,591140,17:43,59,60,100,100,94,100,5,12,18,93,90,120,85,97,99,,,,,,,,,,,,,-0.115,0.63761,39.3,,,2.53906,0,-60.2,,,,0,0
00:09:51_150,591150,17:43,59,60,100,100,94,100,5,12,18,93,90,120,85,97,99,,,,,,,,,,,,,-0.115,0.62027,39.3,,,2.53906,0,-60.2,,,,0,0
00:09:51_160,591160,17:43,59,60,100,100,94,100,5,12,18,93,90,120,85,97,99,,,,,,,,,,,,,-0.11,0.58852,39.3,,,2.53384,0,-60.2,,,,0,0
00:09:51_170,591170,17:43,59,60,100,100,94,100,5,12,18,93,90,120,85,97,99,,,,,,,,,,,,,-0.11,0.57192,39.3,,,2.54466,0,-60.2,,,,0,0
00:09:51_180,591180,17:43,59,60,100,100,94,100,5,12,18,93,90,120,85,97,99,,,,,,,,,,,,,-0.105,0.55458,39.3,,,2.56992,0,-60.2,,,,0,0
00:09:51_190,591190,17:43,59,60,100,100,94,100,5,12,18,93,90,120,85,97,99,,,,,,,,,,,,,-0.1,0.537,39.3,,,2.58386,0,-60.2,,,,0,0
00:09:51_200,591200,17:43,59,60,100,100,94,100,5,12,18,93,90,120,85,97,99,,,,,,,,,,,,,-0.095,0.51941,39.3,,,2.57813,0,-60.2,,,,0,0
00:09:51_210,591210,17:43,59,60,100,100,94,100,5,12,18,93,90,120,85,97,99,,,,,,,,,,,,,-0.095,0.48474,39.3,,,2.57813,0,-60.2,,,,0,0
00:09:51_220,591220,17:43,59,60,100,100,94,100,5,12,18,93,90,120,85,97,99,,,,,,,,,,,,,-0.09,0.46789,39.3,,,2.57813,0,-60.2,,,,0,0
00:09:51_230,591230,17:43,59,60,100,100,94,100,5,12,18,93,90,120,85,97,99,,,,,,,,,,,,,-0.09,0.45153,39.3,,,2.57813,0,-60.2,,,,0,0
00:09:51_240,591240,17:43,59,60,100,100,94,100,5,12,18,93,90,120,85,97,99,,,,,,,,,,,,,-0.085,0.43565,39.3,,,2.58327,0,-60.2,,,,0,0
00:09:51_250,591250,17:43,59,60,100,100,94,100,5,12,18,93,90,120,85,97,99,,,,,,,,,,,,,-0.085,0.40806,39.3,,,2.57135,0,-60.2,,,,0,0
00:09:51_260,591260,17:43,59,60,100,100,94,100,5,12,18,93,90,120,85,97,99,,,,,,,,,,,,,-0.085,0.39731,39.3,,,2.54875,0,-60.2,,,,0,0
00:09:51_270,591270,17:43,59,60,100,100,94,100,5,12,18,93,90,120,85,97,99,,,,,,,,,,,,,-0.08,0.38632,39.3,,,2.53342,0,-60.2,,,,0,0
00:09:51_280,591280,17:43,59,60,100,100,94,100,5,12,18,93,90,120,85,97,99,,,,,,,,,,,,,-0.06,0.3663,39.3,,,2.53906,0,-60.2,,,,0,0
00:09:51_290,591290,17:43,59,60,100,100,94,100,5,12,18,93,90,120,85,97,99,,,,,,,,,,,,,-0.035,0.358,39.3,,,2.53906,0,-60.2,,,,0,0
00:09:51_300,591300,17:43,59,60,100,100,94,100,5,12,18,93,90,120,85,97,99,,,,,,,,,,,,,-0.02,0.35067,39.3,,,2.53906,0,-60.2,,,,0,0
00:09:51_310,591310,17:43,59,60,100,100,94,100,5,12,18,93,90,120,85,97,99,,,,,,,,,,,,,-0.02,0.35067,39.3,,,2.53906,0,-60.2,,,,0,0
00:09:51_320,591320,17:43,59,60,100,100,94,100,5,12,18,93,90,120,85,97,99,,,,,,,,,,,,,0.015,0.34017,39.4,,,2.53906,0,-60.2,,,,0,0
00:09:51_330,591330,17:43,59,60,100,100,94,100,5,12,18,93,90,120,85,97,99,,,,,,,,,,,,,0.015,0.34017,39.4,,,2.53906,0,-60.2,,,,0,0
00:09:51_340,591340,17:43,59,60,100,100,94,100,5,12,18,93,90,120,85,97,99,,,,,,,,,,,,,0.02,0.33407,39.4,,,2.53996,0,-60.2,,,,0,0
00:09:51_350,591350,17:43,59,60,100,100,94,100,5,12,18,93,90,120,85,97,99,,,,,,,,,,,,,0.02,0.33407,39.4,,,2.53996,0,-60.2,,,,0,0
00:09:51_360,591360,17:43,59,60,100,100,94,100,5,12,18,93,90,120,85,97,99,,,,,,,,,,,,,0.02,0.33407,39.4,,,2.53996,0,-60.2,,,,0,0
00:09:51_370,591370,17:43,59,60,100,100,94,100,5,12,18,93,90,120,85,97,99,,,,,,,,,,,,,0.02,0.33407,39.4,,,2.53996,0,-60.2,,,,0,0
00:09:51_380,591380,17:43,59,60,100,100,94,100,5,12,18,93,90,120,85,97,99,,,,,,,,,,,,,-0.11,0.35116,39.4,,,2.4398,0,-60.2,,,,0,0
00:09:51_390,591390,17:43,59,60,100,100,94,100,5,12,18,93,90,120,85,97,99,,,,,,,,,,,,,-0.115,0.35116,39.4,,,2.42813,0,-60.2,,,,0,0
00:09:51_400,591400,17:43,59,60,100,100,94,100,5,12,18,93,90,120,85,97,99,,,,,,,,,,,,,-0.115,0.35678,39.4,,,2.40255,0,-60.2,,,,0,0
00:09:51_410,591410,17:43,59,60,100,100,94,100,5,12,18,93,90,120,85,97,99,,,,,,,,,,,,,-0.11,0.36801,39.4,,,2.3741,0,-60.2,,,,0,0
00:09:51_420,591420,17:43,59,60,100,100,94,100,5,12,18,93,90,120,85,97,99,,,,,,,,,,,,,-0.105,0.37363,39.4,,,2.3513,0,-60.2,,,,0,0
00:09:51_430,591430,17:43,59,60,100,100,94,100,5,12,18,93,90,120,85,97,99,,,,,,,,,,,,,-0.105,0.37875,39.4,,,2.3343,0,-60.2,,,,0,0
00:09:51_440,591440,17:43,59,60,100,100,94,100,5,12,18,93,90,120,85,97,99,,,,,,,,,,,,,-0.105,0.38706,39.5,,,2.34838,0,-60.2,,,,0,0
00:09:51_450,591450,17:43,59,60,100,100,94,100,5,12,18,93,90,120,85,97,99,,,,,,,,,,,,,-0.1,0.38999,39.5,,,2.37013,0,-60.2,,,,0,0
00:09:51_460,591460,17:43,59,60,100,100,94,100,5,12,18,93,90,120,85,97,99,,,,,,,,,,,,,-0.125,0.39219,39.5,,,2.38648,0,-60.2,,,,0,0
00:09:51_470,591470,17:43,59,60,100,100,94,100,5,12,18,93,90,120,85,97,99,,,,,,,,,,,,,-0.155,0.39414,39.5,,,2.38009,0,-60.2,,,,0,0
00:09:51_480,591480,17:43,59,60,100,100,94,100,5,12,18,93,90,120,85,97,99,,,,,,,,,,,,,0.095,0.39683,39.5,,,2.40402,0,-60.2,,,,0,0
00:09:51_490,591490,17:43,59,60,100,100,94,100,5,12,18,93,90,120,85,97,99,,,,,,,,,,,,,0.565,0.39731,39.5,,,2.42627,0,-60.2,,,,0,0
00:09:51_500,591500,17:43,59,60,100,100,94,100,5,12,18,93,90,120,85,97,99,,,,,,,,,,,,,1.135,0.39731,39.5,,,2.4287,0,-60.2,,,,0,0
00:09:51_510,591510,17:43,59,60,100,100,94,100,5,12,18,93,90,120,85,97,99,,,,,,,,,,,,,0.895,0.39658,39.5,,,2.40783,0,-60.2,,,,0,0
00:09:51_520,591520,17:43,59,60,100,100,94,100,5,12,18,93,90,120,85,97,99,,,,,,,,,,,,,0.255,0.39536,39.5,,,2.38213,0,-60.2,,,,0,0
00:09:51_530,591530,17:43,59,60,100,100,94,100,5,12,18,93,90,120,85,97,99,,,,,,,,,,,,,-0.05,0.39219,39.5,,,2.38554,0,-60.2,,,,0,0
00:09:51_540,591540,17:43,59,60,100,100,94,100,5,12,18,93,90,120,85,97,99,,,,,,,,,,,,,-0.12,0.38974,39.5,,,2.37083,0,-60.2,,,,0,0
00:09:51_550,591550,17:43,59,60,100,100,94,100,5,12,18,93,90,120,85,97,99,,,,,,,,,,,,,-0.12,0.38706,39.5,,,2.35312,0,-60.2,,,,0,0
00:09:51_560,591560,17:43,59,60,100,100,94,100,5,12,18,93,90,120,85,97,99,,,,,,,,,,,,,-0.125,0.38462,39.6,,,2.32911,0,-60.2,,,,0,0
00:09:51_570,591570,17:43,59,60,100,100,94,100,5,12,18,93,90,120,85,97,99,,,,,,,,,,,,,-0.13,0.37949,39.6,,,2.28807,0,-60.2,,,,0,0
00:09:51_580,591580,17:43,59,60,100,100,94,100,5,12,18,93,90,120,85,97,99,,,,,,,,,,,,,-0.125,0.37631,39.6,,,2.24779,0,-60.2,,,,0,0
00:09:51_590,591590,17:43,59,60,100,100,94,100,5,12,18,93,90,120,85,97,99,,,,,,,,,,,,,-0.115,0.37314,39.6,,,2.19543,0,-60.2,,,,0,0
00:09:51_600,591600,17:43,59,60,100,100,94,100,5,12,18,93,90,120,85,97,99,,,,,,,,,,,,,-0.11,0.36996,39.6,,,2.1875,0,-60.2,,,,0,0
00:09:51_610,591610,17:43,59,60,100,100,94,100,5,12,18,93,90,120,85,97,99,,,,,,,,,,,,,-0.095,0.36386,39.6,,,2.19277,0,-60.2,,,,0,0
00:09:51_620,591620,17:43,59,60,100,100,94,100,5,12,18,93,90,120,85,97,99,,,,,,,,,,,,,-0.085,0.36093,39.6,,,2.24983,0,-60.2,,,,0,0
00:09:51_630,591630,17:43,59,60,100,100,94,100,5,12,18,93,90,120,85,97,99,,,,,,,,,,,,,-0.075,0.358,39.6,,,2.30987,0,-60.2,,,,0,0
00:09:51_640,591640,17:43,59,60,100,100,94,100,5,12,18,93,90,120,85,97,99,,,,,,,,,,,,,-0.055,0.35238,39.6,,,2.48619,0,-60.2,,,,0,0
00:09:51_650,591650,17:43,59,60,100,100,94,100,5,12,18,93,90,120,85,97,99,,,,,,,,,,,,,-0.035,0.34994,39.6,,,2.6211,0,-60.2,,,,0,0
00:09:51_660,591660,17:43,59,60,100,100,94,100,5,12,18,93,90,120,85,97,99,,,,,,,,,,,,,-0.02,0.34799,39.6,,,2.66015,0,-60.2,,,,0,0
00:09:51_670,591670,17:43,59,60,100,100,94,100,5,12,18,93,90,120,85,97,99,,,,,,,,,,,,,-0.005,0.34579,39.6,,,2.75005,0,-60.2,,,,0,0
00:09:51_680,591680,17:43,59,60,100,100,94,100,5,12,18,93,90,120,85,97,99,,,,,,,,,,,,,0.015,0.34066,39.6,,,2.83839,0,-60.2,,,,0,0
00:09:51_690,591690,17:43,59,60,100,100,94,100,5,12,18,93,90,120,85,97,99,,,,,,,,,,,,,0.03,0.33773,39.6,,,2.86612,0,-60.2,,,,0,0
00:09:51_700,591700,17:43,59,60,100,100,94,100,5,12,18,93,90,120,85,97,99,,,,,,,,,,,,,0.06,0.3348,39.6,,,2.91433,0,-60.2,,,,0,0
00:09:51_710,591710,17:43,59,60,100,100,94,100,5,12,18,93,90,120,85,97,99,,,,,,,,,,,,,0.1,0.33162,39.6,,,2.92965,0,-60.2,,,,0,0
00:09:51_720,591720,17:43,59,60,100,100,94,100,5,12,18,93,90,120,85,97,99,,,,,,,,,,,,,0.14,0.32821,39.6,,,2.92035,0,-60.2,,,,0,0
00:09:51_730,591730,17:43,59,60,100,100,94,100,5,12,18,93,90,120,85,97,99,,,,,,,,,,,,,0.175,0.32112,39.6,,,2.88142,0,-60.2,,,,0,0
00:09:51_740,591740,17:43,59,60,100,100,94,100,5,12,18,93,90,120,85,97,99,,,,,,,,,,,,,0.215,0.3177,39.6,,,2.85875,0,-60.2,,,,0,0
00:09:51_750,591750,17:43,59,60,100,100,94,100,5,12,18,93,90,120,85,97,99,,,,,,,,,,,,,0.245,0.31477,39.6,,,2.84206,0,-60.2,,,,0,0
00:09:51_760,591760,17:43,59,60,100,100,94,100,5,12,18,93,90,120,85,97,99,,,,,,,,,,,,,0.26,0.31258,39.6,,,2.85215,0,-60.2,,,,0,0
00:09:51_770,591770,17:43,59,60,100,100,94,100,5,12,18,93,90,120,85,97,99,,,,,,,,,,,,,0.265,0.30867,39.5,,,2.87717,0,-60.2,,,,0,0
00:09:51_780,591780,17:43,59,60,100,100,94,100,5,12,18,93,90,120,85,97,99,,,,,,,,,,,,,0.26,0.30672,39.5,,,2.89601,0,-60.2,,,,0,0
00:09:51_790,591790,17:43,59,60,100,100,94,100,5,12,18,93,90,120,85,97,99,,,,,,,,,,,,,0.24,0.30476,39.5,,,2.89113,0,-60.2,,,,0,0
00:09:51_800,591800,17:43,59,60,100,100,94,100,5,12,18,93,90,120,85,97,99,,,,,,,,,,,,,0.21,0.30281,39.5,,,2.90082,0,-60.2,,,,0,0
00:09:51_810,591810,17:43,59,60,100,100,94,100,5,12,18,93,90,120,85,97,99,,,,,,,,,,,,,0.145,0.29939,39.5,,,2.87858,0,-60.2,,,,0,0
00:09:51_820,591820,17:43,59,60,100,100,94,100,5,12,18,93,90,120,85,97,99,,,,,,,,,,,,,0.09,0.29768,39.5,,,2.83801,0,-60.2,,,,0,0
00:09:51_830,591830,17:43,59,60,100,100,94,100,5,12,18,93,90,120,85,97,99,,,,,,,,,,,,,0.02,0.29573,39.5,,,2.78964,0,-60.2,,,,0,0
00:09:51_840,591840,17:43,59,60,100,100,94,100,5,12,18,93,90,120,85,97,99,,,,,,,,,,,,,-0.04,0.29353,39.5,,,2.77131,0,-60.2,,,,0,0
00:09:51_850,591850,17:43,59,60,100,100,94,100,5,12,18,93,90,120,85,97,99,,,,,,,,,,,,,-0.095,0.28913,39.5,,,2.74566,0,-60.2,,,,0,0
00:09:51_860,591860,17:43,59,60,100,100,94,100,5,12,18,93,90,120,85,97,99,,,,,,,,,,,,,-0.135,0.28718,39.5,,,2.72876,0,-60.2,,,,0,0
00:09:51_870,591870,17:43,59,60,100,100,94,100,5,12,18,93,90,120,85,97,99,,,,,,,,,,,,,-0.16,0.28474,39.5,,,2.7341,0,-60.2,,,,0,0
00:09:51_880,591880,17:43,59,60,100,100,94,100,5,12,18,93,90,120,85,97,99,,,,,,,,,,,,,-0.17,0.2823,39.5,,,2.73922,0,-60.2,,,,0,0
00:09:51_890,591890,17:43,59,60,100,100,94,100,5,12,18,93,90,120,85,97,99,,,,,,,,,,,,,-0.18,0.27814,39.5,,,2.72898,0,-60.2,,,,0,0
00:09:51_900,591900,17:43,59,60,100,100,94,100,5,12,18,93,90,120,85,97,99,,,,,,,,,,,,,-0.18,0.27643,39.5,,,2.70393,0,-60.2,,,,0,0
00:09:51_910,591910,17:43,59,60,100,100,94,100,5,12,18,93,90,120,85,97,99,,,,,,,,,,,,,-0.18,0.27521,39.5,,,2.68955,0,-60.2,,,,0,0
00:09:51_920,591920,17:43,59,60,100,100,94,100,5,12,18,93,90,120,85,97,99,,,,,,,,,,,,,-0.18,0.27424,39.5,,,2.69531,0,-60.2,,,,0,0
00:09:51_930,591930,17:43,59,60,100,100,94,100,5,12,18,93,90,120,85,97,99,,,,,,,,,,,,,-0.17,0.27277,39.5,,,2.69531,0,-60.2,,,,0,0
00:09:51_940,591940,17:43,59,60,100,100,94,100,5,12,18,93,90,120,85,97,99,,,,,,,,,,,,,-0.17,0.27228,39.5,,,2.69531,0,-60.2,,,,0,0
00:09:51_950,591950,17:43,59,60,100,100,94,100,5,12,18,93,90,120,85,97,99,,,,,,,,,,,,,-0.165,0.27155,39.5,,,2.69531,0,-60.2,,,,0,0
00:09:51_960,591960,17:43,59,60,100,100,94,100,5,12,18,93,90,120,85,97,99,,,,,,,,,,,,,-0.16,0.27106,39.6,,,2.70054,0,-60.2,,,,0,0
00:09:51_970,591970,17:43,59,60,100,100,94,100,5,12,18,93,90,120,85,97,99,,,,,,,,,,,,,-0.16,0.27033,39.6,,,2.69052,0,-60.2,,,,0,0
00:09:51_980,591980,17:43,59,60,100,100,94,100,5,12,18,93,90,120,85,97,99,,,,,,,,,,,,,-0.155,0.2696,39.6,,,2.66531,0,-60.2,,,,0,0
00:09:51_990,591990,17:43,59,60,100,100,94,100,5,12,18,93,90,120,85,97,99,,,,,,,,,,,,,-0.155,0.26911,39.6,,,2.65847,0,-60.2,,,,0,0
00:09:52_000,592000,17:43,59,60,100,100,94,100,5,12,18,93,90,120,85,97,99,,,,,,,,,,,,,-0.15,0.26984,39.6,,,2.65682,0,-60.2,,,,0,0
00:09:52_010,592010,17:43,59,60,100,100,94,100,5,12,18,93,90,120,85,97,99,,,,,,,,,,,,,-0.15,0.27912,39.6,,,2.61239,0,-60.2,,,,0,0
00:09:52_020,592020,17:43,59,60,100,100,94,100,5,12,18,93,90,120,85,97,99,,,,,,,,,,,,,-0.15,0.28938,39.6,,,2.55588,0,-60.2,,,,0,0
00:09:52_030,592030,17:43,59,60,100,100,94,100,5,12,18,93,90,120,85,97,99,,,,,,,,,,,,,-0.15,0.30476,39.6,,,2.54322,0,-60.2,,,,0,0
00:09:52_040,592040,17:43,59,60,100,100,94,100,5,12,18,93,90,120,85,97,99,,,,,,,,,,,,,-0.145,0.32576,39.7,,,2.5393,0,-60.2,,,,0,0
00:09:52_050,592050,17:43,59,60,100,100,94,100,5,12,18,93,90,120,85,97,99,,,,,,,,,,,,,-0.145,0.37851,39.7,,,2.53027,0,-60.2,,,,0,0
00:09:52_060,592060,17:43,59,60,100,100,94,100,5,12,18,93,90,120,85,97,99,,,,,,,,,,,,,-0.145,0.4061,39.7,,,2.51012,0,-60.2,,,,0,0
00:09:52_070,592070,17:43,59,60,100,100,94,100,5,12,18,93,90,120,85,97,99,,,,,,,,,,,,,-0.14,0.44005,39.7,,,2.49784,0,-60.2,,,,0,0
00:09:52_080,592080,17:43,59,60,100,100,94,100,5,12,18,93,90,120,85,97,99,,,,,,,,,,,,,-0.14,0.47741,39.7,,,2.49895,0,-60.2,,,,0,0
00:09:52_090,592090,17:43,59,60,100,100,94,100,5,12,18,93,90,120,85,97,99,,,,,,,,,,,,,-0.135,0.55214,39.7,,,2.47596,0,-60.2,,,,0,0
00:09:52_100,592100,17:43,59,60,100,100,94,100,5,12,18,93,90,120,85,97,99,,,,,,,,,,,,,-0.135,0.58608,39.7,,,2.45733,0,-60.2,,,,0,0
00:09:52_110,592110,17:43,59,60,100,100,94,100,5,12,18,93,90,120,85,97,99,,,,,,,,,,,,,-0.13,0.61587,39.7,,,2.46368,0,-60.2,,,,0,0
00:09:52_120,592120,17:43,59,60,100,100,94,100,5,12,18,93,90,120,85,97,99,,,,,,,,,,,,,-0.125,0.65983,39.7,,,2.43958,0,-60.2,,,,0,0
00:09:52_130,592130,17:43,59,60,100,100,94,100,5,12,18,93,90,120,85,97,99,,,,,,,,,,,,,-0.125,0.67375,39.8,,,2.41862,0,-60.2,,,,0,0
00:09:52_140,592140,17:43,59,60,100,100,94,100,5,12,18,93,90,120,85,97,99,,,,,,,,,,,,,-0.12,0.68205,39.8,,,2.42562,0,-60.2,,,,0,0
00:09:52_150,592150,17:43,59,60,100,100,94,100,5,12,18,93,90,120,85,97,99,,,,,,,,,,,,,-0.115,0.68547,39.8,,,2.40579,0,-60.2,,,,0,0
00:09:52_160,592160,17:43,59,60,100,100,94,100,5,12,18,93,90,120,85,97,99,,,,,,,,,,,,,-0.115,0.68449,39.8,,,2.38308,0,-60.2,,,,0,0
00:09:52_170,592170,17:43,59,60,100,100,94,100,5,12,18,93,90,120,85,97,99,,,,,,,,,,,,,-0.11,0.67399,39.8,,,2.38527,0,-60.2,,,,0,0
00:09:52_180,592180,17:43,59,60,100,100,94,100,5,12,18,93,90,120,85,97,99,,,,,,,,,,,,,-0.105,0.66545,39.8,,,2.37191,0,-60.2,,,,0,0
00:09:52_190,592190,17:43,59,60,100,100,94,100,5,12,18,93,90,120,85,97,99,,,,,,,,,,,,,-0.105,0.65543,39.8,,,2.34926,0,-60.2,,,,0,0
00:09:52_200,592200,17:43,59,60,100,100,94,100,5,12,18,93,90,120,85,97,99,,,,,,,,,,,,,-0.1,0.64396,39.8,,,2.33887,0,-60.2,,,,0,0
00:09:52_210,592210,17:43,59,60,100,100,94,100,5,12,18,93,90,120,85,97,99,,,,,,,,,,,,,-0.095,0.6188,39.8,,,2.34375,0,-60.2,,,,0,0
00:09:52_220,592220,17:43,59,60,100,100,94,100,5,12,18,93,90,120,85,97,99,,,,,,,,,,,,,-0.095,0.60562,39.8,,,2.34375,0,-60.2,,,,0,0
00:09:52_230,592230,17:43,59,60,100,100,94,100,5,12,18,93,90,120,85,97,99,,,,,,,,,,,,,-0.095,0.59219,39.7,,,2.34375,0,-60.2,,,,0,0
00:09:52_240,592240,17:43,59,60,100,100,94,100,5,12,18,93,90,120,85,97,99,,,,,,,,,,,,,-0.09,0.579,39.7,,,2.34375,0,-60.2,,,,0,0
00:09:52_250,592250,17:43,59,60,100,100,94,100,5,12,18,93,90,120,85,97,99,,,,,,,,,,,,,-0.085,0.55409,39.7,,,2.34375,0,-60.2,,,,0,0
00:09:52_260,592260,17:43,59,60,100,100,94,100,5,12,18,93,90,120,85,97,99,,,,,,,,,,,,,-0.085,0.54286,39.7,,,2.3457,0,-60.2,,,,0,0
00:09:52_270,592270,17:43,59,60,100,100,94,100,5,12,18,93,90,120,85,97,99,,,,,,,,,,,,,-0.085,0.53065,39.7,,,2.34673,0,-60.2,,,,0,0
00:09:52_280,592280,17:43,59,60,100,100,94,100,5,12,18,93,90,120,85,97,99,,,,,,,,,,,,,-0.08,0.51819,39.7,,,2.32471,0,-60.2,,,,0,0
00:09:52_290,592290,17:43,59,60,100,100,94,100,5,12,18,93,90,120,85,97,99,,,,,,,,,,,,,-0.075,0.49255,39.7,,,2.30133,0,-60.2,,,,0,0
00:09:52_300,592300,17:43,59,60,100,100,94,100,5,12,18,93,90,120,85,97,99,,,,,,,,,,,,,-0.07,0.47961,39.7,,,2.30844,0,-60.2,,,,0,0
00:09:52_310,592310,17:43,59,60,100,100,94,100,5,12,18,93,90,120,85,97,99,,,,,,,,,,,,,-0.07,0.47961,39.7,,,2.30844,0,-60.2,,,,0,0
00:09:52_320,592320,17:43,59,60,100,100,94,100,5,12,18,93,90,120,85,97,99,,,,,,,,,,,,,-0.035,0.4547,39.7,,,2.27163,0,-60.2,,,,0,0
00:09:52_330,592330,17:43,59,60,100,100,94,100,5,12,18,93,90,120,85,97,99,,,,,,,,,,,,,-0.015,0.44298,39.7,,,2.26618,0,-60.2,,,,0,0
00:09:52_340,592340,17:43,59,60,100,100,94,100,5,12,18,93,90,120,85,97,99,,,,,,,,,,,,,0.015,0.41221,39.7,,,2.24904,0,-60.2,,,,0,0
00:09:52_350,592350,17:43,59,60,100,100,94,100,5,12,18,93,90,120,85,97,99,,,,,,,,,,,,,0.015,0.41221,39.7,,,2.24904,0,-60.2,,,,0,0
00:09:52_360,592360,17:43,59,60,100,100,94,100,5,12,18,93,90,120,85,97,99,,,,,,,,,,,,,0.015,0.41221,39.7,,,2.24904,0,-60.2,,,,0,0
00:09:52_370,592370,17:43,59,60,100,100,94,100,5,12,18,93,90,120,85,97,99,,,,,,,,,,,,,0.015,0.41221,39.7,,,2.24904,0,-60.2,,,,0,0
00:09:52_380,592380,17:43,59,60,100,100,94,100,5,12,18,93,90,120,85,97,99,,,,,,,,,,,,,-0.015,0.38046,39.8,,,2.14115,0,-60.2,,,,0,0
00:09:52_390,592390,17:43,59,60,100,100,94,100,5,12,18,93,90,120,85,97,99,,,,,,,,,,,,,-0.03,0.38046,39.8,,,2.11526,0,-60.2,,,,0,0
00:09:52_400,592400,17:43,59,60,100,100,94,100,5,12,18,93,90,120,85,97,99,,,,,,,,,,,,,-0.07,0.37192,39.8,,,2.06539,0,-60.2,,,,0,0
00:09:52_410,592410,17:43,59,60,100,100,94,100,5,12,18,93,90,120,85,97,99,,,,,,,,,,,,,-0.085,0.36899,39.8,,,2.04475,0,-60.2,,,,0,0
00:09:52_420,592420,17:43,59,60,100,100,94,100,5,12,18,93,90,120,85,97,99,,,,,,,,,,,,,-0.1,0.36654,39.8,,,2.01545,0,-60.2,,,,0,0
00:09:52_430,592430,17:43,59,60,100,100,94,100,5,12,18,93,90,120,85,97,99,,,,,,,,,,,,,-0.105,0.36484,39.8,,,1.99579,0,-60.2,,,,0,0
00:09:52_440,592440,17:43,59,60,100,100,94,100,5,12,18,93,90,120,85,97,99,,,,,,,,,,,,,-0.105,0.36337,39.8,,,1.98856,0,-60.2,,,,0,0
00:09:52_450,592450,17:43,59,60,100,100,94,100,5,12,18,93,90,120,85,97,99,,,,,,,,,,,,,-0.1,0.36337,39.8,,,1.99167,0,-60.2,,,,0,0
00:09:52_460,592460,17:43,59,60,100,100,94,100,5,12,18,93,90,120,85,97,99,,,,,,,,,,,,,-0.095,0.36361,39.8,,,1.98682,0,-60.2,,,,0,0
00:09:52_470,592470,17:43,59,60,100,100,94,100,5,12,18,93,90,120,85,97,99,,,,,,,,,,,,,-0.085,0.36435,39.9,,,2.01253,0,-60.2,,,,0,0
00:09:52_480,592480,17:43,59,60,100,100,94,100,5,12,18,93,90,120,85,97,99,,,,,,,,,,,,,-0.085,0.36532,39.9,,,2.03125,0,-60.2,,,,0,0
00:09:52_490,592490,17:43,59,60,100,100,94,100,5,12,18,93,90,120,85,97,99,,,,,,,,,,,,,-0.115,0.36752,39.9,,,2.01547,0,-60.2,,,,0,0
00:09:52_500,592500,17:43,59,60,100,100,94,100,5,12,18,93,90,120,85,97,99,,,,,,,,,,,,,-0.125,0.36874,39.9,,,1.98,0,-60.2,,,,0,0
00:09:52_510,592510,17:43,59,60,100,100,94,100,5,12,18,93,90,120,85,97,99,,,,,,,,,,,,,0.08,0.36996,39.9,,,1.96609,0,-60.2,,,,0,0
00:09:52_520,592520,17:43,59,60,100,100,94,100,5,12,18,93,90,120,85,97,99,,,,,,,,,,,,,0.66,0.37118,39.9,,,1.9188,0,-60.2,,,,0,0
00:09:52_530,592530,17:43,59,60,100,100,94,100,5,12,18,93,90,120,85,97,99,,,,,,,,,,,,,1.145,0.37289,39.9,,,1.85591,0,-60.2,,,,0,0
00:09:52_540,592540,17:43,59,60,100,100,94,100,5,12,18,93,90,120,85,97,99,,,,,,,,,,,,,0.575,0.37363,39.9,,,1.80578,0,-60.2,,,,0,0
00:09:52_550,592550,17:43,59,60,100,100,94,100,5,12,18,93,90,120,85,97,99,,,,,,,,,,,,,0.23,0.37411,40,,,1.77774,0,-60.2,,,,0,0
00:09:52_560,592560,17:43,59,60,100,100,94,100,5,12,18,93,90,120,85,97,99,,,,,,,,,,,,,-0.05,0.37436,40,,,1.75772,0,-60.2,,,,0,0
00:09:52_570,592570,17:43,59,60,100,100,94,100,5,12,18,93,90,120,85,97,99,,,,,,,,,,,,,-0.09,0.37436,40,,,1.71001,0,-60.2,,,,0,0
00:09:52_580,592580,17:43,59,60,100,100,94,100,5,12,18,93,90,120,85,97,99,,,,,,,,,,,,,-0.095,0.37387,40,,,1.65697,0,-60.2,,,,0,0
00:09:52_590,592590,17:43,59,60,100,100,94,100,5,12,18,93,90,120,85,97,99,,,,,,,,,,,,,-0.105,0.37338,40,,,1.64456,0,-60.2,,,,0,0
00:09:52_600,592600,17:43,59,60,100,100,94,100,5,12,18,93,90,120,85,97,99,,,,,,,,,,,,,-0.105,0.37265,40,,,1.62086,0,-60.2,,,,0,0
00:09:52_610,592610,17:43,59,60,100,100,94,100,5,12,18,93,90,120,85,97,99,,,,,,,,,,,,,-0.105,0.37045,40,,,1.65663,0,-60.2,,,,0,0
00:09:52_620,592620,17:43,59,60,100,100,94,100,5,12,18,93,90,120,85,97,99,,,,,,,,,,,,,-0.1,0.36923,40,,,1.71036,0,-60.2,,,,0,0
00:09:52_630,592630,17:43,59,60,100,100,94,100,5,12,18,93,90,120,85,97,99,,,,,,,,,,,,,-0.095,0.36801,40,,,1.80921,0,-60.2,,,,0,0
00:09:52_640,592640,17:43,59,60,100,100,94,100,5,12,18,93,90,120,85,97,99,,,,,,,,,,,,,-0.08,0.36557,40,,,1.90213,0,-60.2,,,,0,0
00:09:52_650,592650,17:43,59,60,100,100,94,100,5,12,18,93,90,120,85,97,99,,,,,,,,,,,,,-0.075,0.36484,40,,,1.95513,0,-60.2,,,,0,0
00:09:52_660,592660,17:43,59,60,100,100,94,100,5,12,18,93,90,120,85,97,99,,,,,,,,,,,,,-0.065,0.36435,40.1,,,2.02097,0,-60.2,,,,0,0
00:09:52_670,592670,17:43,59,60,100,100,94,100,5,12,18,93,90,120,85,97,99,,,,,,,,,,,,,-0.055,0.36386,40.1,,,2.02801,0,-60.2,,,,0,0
00:09:52_680,592680,17:43,59,60,100,100,94,100,5,12,18,93,90,120,85,97,99,,,,,,,,,,,,,-0.03,0.35604,40.1,,,2.04366,0,-60.2,,,,0,0
00:09:52_690,592690,17:43,59,60,100,100,94,100,5,12,18,93,90,120,85,97,99,,,,,,,,,,,,,-0.015,0.35336,40.1,,,2.02134,0,-60.2,,,,0,0
00:09:52_700,592700,17:43,59,60,100,100,94,100,5,12,18,93,90,120,85,97,99,,,,,,,,,,,,,0,0.3514,40.1,,,1.99082,0,-60.2,,,,0,0
00:09:52_710,592710,17:43,59,60,100,100,94,100,5,12,18,93,90,120,85,97,99,,,,,,,,,,,,,0.02,0.34969,40.1,,,1.91128,0,0,,,,0,0
00:09:52_720,592720,17:43,59,60,100,100,94,100,5,12,18,93,90,120,85,97,99,,,,,,,,,,,,,0.05,0.34774,40.1,,,1.83,-0.00003,0,,,,0,0
00:09:52_730,592730,17:43,59,60,100,100,94,100,5,12,18,93,90,120,85,97,99,,,,,,,,,,,,,0.08,0.34261,40.1,,,1.7521,-0.00964,0,,,,0,0
00:09:52_740,592740,17:43,59,60,100,100,94,100,5,12,18,93,90,120,85,97,99,,,,,,,,,,,,,0.11,0.33944,40.1,,,1.6122,-0.00516,0,,,,0,0
00:09:52_750,592750,17:43,59,60,100,100,94,100,5,12,18,93,90,120,85,97,99,,,,,,,,,,,,,0.145,0.33675,40.1,,,1.50728,0.02391,0,,,,0,0
00:09:52_760,592760,17:43,59,60,100,100,94,100,5,12,18,93,90,120,85,97,99,,,,,,,,,,,,,0.185,0.33431,40.1,,,1.44031,0.1765,0,,,,0,0
00:09:52_770,592770,17:43,59,60,100,100,94,100,5,12,18,93,90,120,85,97,99,,,,,,,,,,,,,0.225,0.32943,40.1,,,1.37963,0.67301,0.1,,,,0,0
00:09:52_780,592780,17:43,59,60,100,100,94,100,5,12,18,93,90,120,85,97,99,,,,,,,,,,,,,0.26,0.32747,40.1,,,1.30508,1.07248,0.3,,,,0,0
00:09:52_790,592790,17:43,59,60,100,100,94,100,5,12,18,93,90,120,85,97,99,,,,,,,,,,,,,0.27,0.32601,40.1,,,1.16786,2.17757,0.7,,,,0,0
00:09:52_800,592800,17:43,59,60,100,100,94,100,5,12,18,93,90,120,85,97,99,,,,,,,,,,,,,0.275,0.32479,40.1,,,1.04869,3.37029,1.2,,,,0,0
00:09:52_810,592810,17:43,59,60,100,100,94,100,5,12,18,93,90,120,85,97,99,,,,,,,,,,,,,0.27,0.32332,40,,,0.71695,2.99878,1.7,,,,0,0
00:09:52_820,592820,17:43,59,60,100,100,94,100,5,12,18,93,90,120,85,97,99,,,,,,,,,,,,,0.25,0.32234,40,,,1.14209,6.92734,2.9,,,,0,0
00:09:52_830,592830,17:43,59,60,100,100,94,100,5,12,18,93,90,120,85,97,99,,,,,,,,,,,,,0.21,0.32137,40,,,2.01199,12.5388,5,,,,0,0
00:09:52_840,592840,17:43,59,60,100,100,94,100,5,12,18,93,90,120,85,97,99,,,,,,,,,,,,,0.16,0.32039,40,,,3.59745,22.88971,8.8,,,,0,0
00:09:52_850,592850,17:43,59,60,100,100,94,100,5,12,18,93,90,120,85,97,99,,,,,,,,,,,,,0.08,0.31819,40,,,4.73397,36.43796,14.9,,,,0,0
00:09:52_860,592860,17:43,59,60,100,100,94,100,5,12,18,93,90,120,85,97,99,,,,,,,,,,,,,0.025,0.31746,40,,,4.74788,45.01414,22.4,,,,0,0
00:09:52_870,592870,17:43,59,60,100,100,94,100,5,12,18,93,90,120,85,97,99,,,,,,,,,,,,,-0.035,0.31624,40,,,4.88797,52.98047,31.2,,,,0,0
00:09:52_880,592880,17:43,59,60,100,100,94,100,5,12,18,93,90,120,85,97,99,,,,,,,,,,,,,-0.095,0.31282,40,,,5.06029,52.8176,40,,,,0,0
00:09:52_890,592890,17:43,58,60,100,100,94,100,5,12,18,93,90,120,85,97,99,,,,,,,,,,,,,-0.125,0.31111,40,,,5.15089,53.57717,48.9,,,,0,0
00:09:52_900,592900,17:43,58,60,100,100,94,100,5,12,18,93,90,120,85,97,99,,,,,,,,,,,,,-0.155,0.30989,40,,,5.57444,52.73372,57.7,,,,0,0
00:09:52_910,592910,17:43,58,60,100,100,94,100,5,12,18,93,90,120,85,97,99,,,,,,,,,,,,,-0.16,0.30891,40,,,5.94119,51.56947,66.3,,,,0,0
00:09:52_920,592920,17:43,58,60,100,100,94,100,5,12,18,93,90,120,85,97,99,,,,,,,,,,,,,-0.16,0.30842,40,,,6.45781,50.91269,74.8,,,,0,0
00:09:52_930,592930,17:43,58,60,100,100,94,100,5,12,18,93,90,120,85,97,99,,,,,,,,,,,,,-0.16,0.30867,39.9,,,6.77085,51.37155,83.4,,,,0,0
00:09:52_940,592940,17:43,58,60,100,100,94,100,5,12,18,93,90,120,85,97,99,,,,,,,,,,,,,-0.155,0.30916,39.9,,,6.84444,51.98244,92,,,,0,0
00:09:52_950,592950,17:43,58,60,100,100,94,100,5,12,18,93,90,120,85,97,99,,,,,,,,,,,,,-0.155,0.30989,39.9,,,6.91569,52.52743,100.8,,,,0,0
00:09:52_960,592960,17:43,58,60,100,100,94,100,5,12,18,93,90,120,85,97,99,,,,,,,,,,,,,-0.155,0.31209,39.9,,,6.96252,52.37585,109.5,,,,0,0
00:09:52_970,592970,17:43,58,60,100,100,94,100,5,12,18,93,90,120,85,97,99,,,,,,,,,,,,,-0.155,0.31331,39.9,,,7.04105,51.47926,118.1,,,,0,0
00:09:52_980,592980,17:43,58,60,100,100,94,100,5,12,18,93,90,120,85,97,99,,,,,,,,,,,,,-0.15,0.31453,39.9,,,7.23084,51.78915,126.7,,,,0,0
00:09:52_990,592990,17:43,58,60,100,100,94,100,5,12,18,93,90,120,85,97,99,,,,,,,,,,,,,-0.15,0.31575,39.9,,,7.35219,53.18928,135.6,,,,0,0
00:09:53_000,593000,17:43,58,60,100,100,94,100,5,12,18,93,90,120,85,97,99,,,,,,,,,,,,,-0.15,0.31697,39.9,,,7.60677,53.60835,144.5,,,,0,0
00:09:53_010,593010,17:43,58,60,100,100,94,100,5,12,18,93,90,120,85,97,99,,,,,,,,,,,,,-0.145,0.31893,39.8,,,7.84678,52.84591,153.3,,,,0,0
00:09:53_020,593020,17:43,58,60,100,100,94,100,5,12,18,93,90,120,85,97,99,,,,,,,,,,,,,-0.145,0.31966,39.8,,,7.93176,52.20853,162,,,,0,0
00:09:53_030,593030,17:43,58,60,100,100,94,100,5,12,18,93,90,120,85,97,99,,,,,,,,,,,,,-0.145,0.32039,39.8,,,8.11503,52.60506,170.8,,,,0,0
00:09:53_040,593040,17:43,58,60,100,100,94,100,5,12,18,93,90,120,85,97,99,,,,,,,,,,,,,-0.145,0.3221,39.8,,,8.25952,53.71871,179.8,,,,0,0
00:09:53_050,593050,17:43,58,60,100,100,94,100,5,12,18,93,90,120,85,97,99,,,,,,,,,,,,,-0.14,0.32357,39.8,,,8.35026,53.83776,188.7,,,,0,0
00:09:53_060,593060,17:43,58,60,100,100,94,100,5,12,18,93,90,120,85,97,99,,,,,,,,,,,,,-0.14,0.32601,39.8,,,8.51146,54.64606,197.8,,,,0,0
00:09:53_070,593070,17:43,58,60,100,100,94,100,5,12,18,93,90,120,85,97,99,,,,,,,,,,,,,-0.145,0.32991,39.8,,,8.6286,55.58825,207.1,,,,0,0
00:09:53_080,593080,17:43,58,60,100,100,94,100,5,12,18,93,90,120,85,97,99,,,,,,,,,,,,,-0.14,0.33651,39.8,,,8.82609,54.87563,216.3,,,,0,0
00:09:53_090,593090,17:43,58,60,100,100,94,100,5,12,18,93,90,120,85,97,99,,,,,,,,,,,,,-0.135,0.35971,39.7,,,9.04403,53.92272,225.2,,,,0,0
00:09:53_100,593100,17:43,58,60,100,100,94,100,5,12,18,93,90,120,85,97,99,,,,,,,,,,,,,-0.125,0.37705,39.7,,,9.15916,54.54089,234.3,,,,0,0
00:09:53_110,593110,17:43,58,60,100,100,94,100,5,12,18,93,90,120,85,97,99,,,,,,,,,,,,,-0.125,0.39805,39.7,,,9.30399,55.36828,243.6,,,,0,0
00:09:53_120,593120,17:43,58,60,100,100,94,100,5,12,18,93,90,120,85,97,99,,,,,,,,,,,,,-0.125,0.42173,39.7,,,9.37715,56.0095,252.9,,,,0,0
00:09:53_130,593130,17:43,58,60,100,100,94,100,5,12,18,93,90,120,85,97,99,,,,,,,,,,,,,-0.125,0.47399,39.7,,,9.38623,57.13549,262.4,,,,0,0
00:09:53_140,593140,17:43,58,60,100,100,94,100,5,12,18,93,90,120,85,97,99,,,,,,,,,,,,,-0.125,0.50012,39.7,,,9.55236,56.94206,271.9,,,,0,0
00:09:53_150,593150,17:43,58,60,100,100,94,100,5,12,18,93,90,120,85,97,99,,,,,,,,,,,,,-0.12,0.52161,39.7,,,9.73575,55.79475,281.2,,,,0,0
00:09:53_160,593160,17:43,58,60,100,100,94,100,5,12,18,93,90,120,85,97,99,,,,,,,,,,,,,-0.115,0.53944,39.7,,,9.95247,54.75535,290.3,,,,0,0
00:09:53_170,593170,17:43,58,60,100,100,94,100,5,12,18,93,90,120,85,97,99,,,,,,,,,,,,,-0.11,0.57387,39.7,,,10.07948,54.8638,299.5,,,,0,0
00:09:53_180,593180,17:43,58,60,100,100,94,100,5,12,18,93,90,120,85,97,99,,,,,,,,,,,,,-0.105,0.5873,39.7,,,10.11984,55.76726,308.8,,,,0,0
00:09:53_190,593190,17:43,58,60,100,100,94,100,5,12,18,93,90,120,85,97,99,,,,,,,,,,,,,-0.105,0.59731,39.7,,,10.22183,55.32441,318,,,,0,0
00:09:53_200,593200,17:43,58,60,100,100,94,100,5,12,18,93,90,120,85,97,99,,,,,,,,,,,,,-0.095,0.6044,39.7,,,10.32017,54.1271,327,,,,0,0
00:09:53_210,593210,17:43,58,60,100,100,94,100,5,12,18,93,90,120,85,97,99,,,,,,,,,,,,,-0.095,0.61026,39.7,,,10.39288,54.14245,336,,,,0,0
00:09:53_220,593220,17:43,58,60,100,100,94,100,5,12,18,93,90,120,85,97,99,,,,,,,,,,,,,-0.095,0.60977,39.7,,,10.44866,54.35449,345.1,,,,0,0
00:09:53_230,593230,17:43,58,60,100,100,94,100,5,12,18,93,90,120,85,97,99,,,,,,,,,,,,,-0.095,0.60733,39.7,,,10.45301,54.2163,354.1,,,,0,0
00:09:53_240,593240,17:43,58,60,100,100,94,100,5,12,18,93,90,120,85,97,99,,,,,,,,,,,,,-0.095,0.59878,39.7,,,10.55242,52.52876,362.9,,,,0,0
00:09:53_250,593250,17:43,58,60,100,100,94,100,5,12,18,93,90,120,85,97,99,,,,,,,,,,,,,-0.09,0.59316,39.7,,,10.64396,51.25375,371.4,,,,0,0
00:09:53_260,593260,17:43,58,60,100,100,94,100,5,12,18,93,90,120,85,97,99,,,,,,,,,,,,,-0.085,0.58681,39.7,,,10.66152,51.78098,380.1,,,,0,0
00:09:53_270,593270,17:43,58,60,100,100,94,100,5,12,18,93,90,120,85,97,99,,,,,,,,,,,,,-0.085,0.57998,39.8,,,10.67349,51.04018,388.6,,,,0,0
00:09:53_280,593280,17:43,58,60,100,100,94,100,5,12,18,93,90,120,85,97,99,,,,,,,,,,,,,-0.085,0.57289,39.8,,,10.66416,49.81335,396.9,,,,0,0
00:09:53_290,593290,17:43,58,60,100,100,94,100,5,12,18,93,90,120,85,97,99,,,,,,,,,,,,,-0.085,0.55824,39.8,,,10.63324,49.44565,405.1,,,,0,0
00:09:53_300,593300,17:43,58,60,100,100,94,100,5,12,18,93,90,120,85,97,99,,,,,,,,,,,,,-0.085,0.55092,39.8,,,10.63309,48.34298,413.2,,,,0,0
00:09:53_310,593310,17:43,58,60,100,100,94,100,5,12,18,93,90,120,85,97,99,,,,,,,,,,,,,-0.085,0.55092,39.8,,,10.63309,48.34298,421.2,,,,0,0
00:09:53_320,593320,17:43,58,60,100,100,94,100,5,12,18,93,90,120,85,97,99,,,,,,,,,,,,,-0.065,0.53651,39.8,,,10.65911,46.61073,429,,,,0,0
00:09:53_330,593330,17:43,58,60,100,100,94,100,5,12,18,93,90,120,85,97,99,,,,,,,,,,,,,-0.035,0.52967,39.8,,,10.62557,46.62157,436.8,,,,0,0
00:09:53_340,593340,17:43,58,60,100,100,94,100,5,12,18,93,90,120,85,97,99,,,,,,,,,,,,,-0.005,0.51648,39.8,,,10.58928,46.1854,444.5,,,,0,0
00:09:53_350,593350,17:43,58,60,100,100,94,100,5,12,18,93,90,120,85,97,99,,,,,,,,,,,,,-0.005,0.51648,39.8,,,10.58928,46.1854,452.2,,,,0,0
00:09:53_360,593360,17:43,58,60,100,100,94,100,5,12,18,93,90,120,85,97,99,,,,,,,,,,,,,-0.005,0.51648,39.8,,,10.58928,46.1854,459.9,,,,0,0
00:09:53_370,593370,17:43,58,60,100,100,94,100,5,12,18,93,90,120,85,97,99,,,,,,,,,,,,,-0.005,0.51648,39.8,,,10.58928,46.1854,467.6,,,,0,0
00:09:53_380,593380,17:43,58,60,100,100,94,100,5,12,18,93,90,120,85,97,99,,,,,,,,,,,,,0.035,0.48938,39.8,,,10.50591,43.48298,474.8,,,,0,0
00:09:53_390,593390,17:43,58,60,100,100,94,100,5,12,18,93,90,120,85,97,99,,,,,,,,,,,,,0.01,0.48498,39.8,,,10.51026,42.44853,481.9,,,,0,0
00:09:53_400,593400,17:43,58,60,100,100,94,100,5,12,18,93,90,120,85,97,99,,,,,,,,,,,,,-0.02,0.48083,39.8,,,10.48856,41.90032,488.9,,,,0,0
00:09:53_410,593410,17:43,58,60,100,100,94,100,5,12,18,93,90,120,85,97,99,,,,,,,,,,,,,-0.065,0.4735,39.8,,,10.46546,41.61541,495.8,,,,0,0
00:09:53_420,593420,17:43,58,60,100,100,94,100,5,12,18,93,90,120,85,97,99,,,,,,,,,,,,,-0.095,0.47033,39.8,,,10.47249,40.97736,502.6,,,,0,0
00:09:53_430,593430,17:43,58,60,100,100,94,100,5,12,18,93,90,120,85,97,99,,,,,,,,,,,,,-0.11,0.4674,39.8,,,10.45468,40.62852,509.4,,,,0,0
00:09:53_440,593440,17:43,58,60,100,100,94,100,5,12,18,93,90,120,85,97,99,,,,,,,,,,,,,-0.115,0.46252,39.8,,,10.42457,40.75088,516.2,,,,0,0
00:09:53_450,593450,17:43,58,60,100,100,94,100,5,12,18,93,90,120,85,97,99,,,,,,,,,,,,,-0.115,0.46056,39.8,,,10.42101,40.87595,523,,,,0,0
00:09:53_460,593460,17:43,58,60,100,100,94,100,5,12,18,93,90,120,85,97,99,,,,,,,,,,,,,-0.115,0.45885,39.7,,,10.4374,39.88688,529.6,,,,0,0
00:09:53_470,593470,17:43,58,60,100,100,94,100,5,12,18,93,90,120,85,97,99,,,,,,,,,,,,,-0.105,0.45739,39.7,,,10.46068,38.51953,536.1,,,,0,0
00:09:53_480,593480,17:43,58,60,100,100,94,100,5,12,18,93,90,120,85,97,99,,,,,,,,,,,,,-0.095,0.45617,39.7,,,10.50392,37.12492,542.3,,,,0,0
00:09:53_490,593490,17:43,58,60,100,100,94,100,5,12,18,93,90,120,85,97,99,,,,,,,,,,,,,-0.085,0.45348,39.7,,,10.50066,37.06737,548.4,,,,0,0
00:09:53_500,593500,17:43,58,60,100,100,94,100,5,12,18,93,90,120,85,97,99,,,,,,,,,,,,,-0.115,0.45177,39.7,,,10.45819,38.03682,554.8,,,,0,0
00:09:53_510,593510,17:43,58,60,100,100,94,100,5,12,18,93,90,120,85,97,99,,,,,,,,,,,,,-0.13,0.45006,39.7,,,10.40357,37.48805,561,,,,0,0
00:09:53_520,593520,17:43,58,60,100,100,94,100,5,12,18,93,90,120,85,97,99,,,,,,,,,,,,,0.05,0.44811,39.7,,,10.39017,35.90718,567,,,,0,0
00:09:53_530,593530,17:43,58,60,100,100,94,100,5,12,18,93,90,120,85,97,99,,,,,,,,,,,,,0.64,0.44298,39.7,,,10.39327,35.57177,572.9,,,,0,0
00:09:53_540,593540,17:43,58,60,100,100,94,100,5,12,18,93,90,120,85,97,99,,,,,,,,,,,,,1.17,0.44054,39.7,,,10.37513,35.0102,578.8,,,,0,0
00:09:53_550,593550,17:43,58,60,100,100,94,100,5,12,18,93,90,120,85,97,99,,,,,,,,,,,,,0.735,0.4381,39.7,,,10.35493,34.56372,584.5,,,,0,0
00:09:53_560,593560,17:43,58,60,100,100,94,100,5,12,18,93,90,120,85,97,99,,,,,,,,,,,,,0.23,0.43565,39.7,,,10.35133,34.23558,590.2,,,,0,0
00:09:53_570,593570,17:43,58,60,100,100,94,100,5,12,18,93,90,120,85,97,99,,,,,,,,,,,,,-0.045,0.43077,39.7,,,10.34723,33.58751,595.8,,,,0,0
00:09:53_580,593580,17:43,58,60,100,100,94,100,5,12,18,93,90,120,85,97,99,,,,,,,,,,,,,-0.095,0.42857,39.7,,,10.32689,32.52123,601.3,,,,0,0
00:09:53_590,593590,17:43,58,60,100,100,94,100,5,12,18,93,90,120,85,97,99,,,,,,,,,,,,,-0.095,0.42637,39.6,,,10.29082,32.00567,606.6,,,,0,0
00:09:53_600,593600,17:43,58,60,100,100,94,100,5,12,18,93,90,120,85,97,99,,,,,,,,,,,,,-0.105,0.42369,39.6,,,10.27334,32.22595,612,,,,0,0
00:09:53_610,593610,17:43,58,60,100,100,94,100,5,12,18,93,90,120,85,97,99,,,,,,,,,,,,,-0.11,0.4188,39.6,,,10.27607,31.87184,617.3,,,,0,0
00:09:53_620,593620,17:43,58,60,100,100,94,100,5,12,18,93,90,120,85,97,99,,,,,,,,,,,,,-0.11,0.41612,39.6,,,10.25956,31.56808,622.5,,,,0,0
00:09:53_630,593630,17:43,58,60,100,100,94,100,5,12,18,93,90,120,85,97,99,,,,,,,,,,,,,-0.105,0.41319,39.6,,,10.23549,31.59908,627.8,,,,0,0
00:09:53_640,593640,17:43,58,60,100,100,94,100,5,12,18,93,90,120,85,97,99,,,,,,,,,,,,,-0.085,0.40757,39.6,,,10.24948,31.03736,633,,,,0,0
00:09:53_650,593650,17:43,58,60,100,100,94,100,5,12,18,93,90,120,85,97,99,,,,,,,,,,,,,-0.08,0.40513,39.6,,,10.28497,30.48248,638.1,,,,0,0
00:09:53_660,593660,17:43,58,60,100,100,94,100,5,12,18,93,90,120,85,97,99,,,,,,,,,,,,,-0.07,0.40269,39.6,,,10.32283,30.00001,643.1,,,,0,0
00:09:53_670,593670,17:43,58,60,100,100,94,100,5,12,18,93,90,120,85,97,99,,,,,,,,,,,,,-0.055,0.40024,39.6,,,10.38672,29.14676,647.9,,,,0,0
00:09:53_680,593680,17:43,58,60,100,100,94,100,5,12,18,93,90,120,85,97,99,,,,,,,,,,,,,-0.045,0.39487,39.6,,,10.44474,28.29445,652.6,,,,0,0
00:09:53_690,593690,17:43,58,60,100,100,94,100,5,12,18,93,90,120,85,97,99,,,,,,,,,,,,,-0.03,0.39194,39.6,,,10.47993,27.79389,657.3,,,,0,0
00:09:53_700,593700,17:43,58,60,100,100,94,100,5,12,18,93,90,120,85,97,99,,,,,,,,,,,,,-0.015,0.38901,39.6,,,10.52762,26.90133,661.7,,,,0,0
00:09:53_710,593710,17:43,58,60,100,100,94,100,5,12,18,93,90,120,85,97,99,,,,,,,,,,,,,0,0.38632,39.6,,,10.53902,26.51216,666.2,,,,0,0
00:09:53_720,593720,17:43,58,60,100,100,94,100,5,12,18,93,90,120,85,97,99,,,,,,,,,,,,,0.01,0.38364,39.6,,,10.56665,25.4104,670.4,,,,0,0
00:09:53_730,593730,17:43,58,60,100,100,94,100,5,12,18,93,90,120,85,97,99,,,,,,,,,,,,,0.035,0.37875,39.6,,,10.5965,24.41912,674.5,,,,0,0
00:09:53_740,593740,17:43,58,60,100,100,94,100,5,12,18,93,90,120,85,97,99,,,,,,,,,,,,,0.08,0.37631,39.6,,,10.62212,24.08356,678.5,,,,0,0
00:09:53_750,593750,17:43,58,60,100,100,94,100,5,12,18,93,90,120,85,97,99,,,,,,,,,,,,,0.1,0.37436,39.6,,,10.63076,23.16287,682.3,,,,0,0
00:09:53_760,593760,17:43,58,60,100,100,94,100,5,12,18,93,90,120,85,97,99,,,,,,,,,,,,,0.14,0.37265,39.6,,,10.625,21.85841,686,,,,0,0
00:09:53_770,593770,17:43,58,60,100,100,94,100,5,12,18,93,90,120,85,97,99,,,,,,,,,,,,,0.18,0.36874,39.6,,,10.625,20.9911,689.5,,,,0,0
00:09:53_780,593780,17:43,58,60,100,100,94,100,5,12,18,93,90,120,85,97,99,,,,,,,,,,,,,0.225,0.36654,39.6,,,10.62264,20.08717,692.8,,,,0,0
00:09:53_790,593790,17:43,58,60,100,100,94,100,5,12,18,93,90,120,85,97,99,,,,,,,,,,,,,0.25,0.36459,39.6,,,10.62123,19.68684,696.1,,,,0,0
00:09:53_800,593800,17:43,58,60,100,100,94,100,5,12,18,93,90,120,85,97,99,,,,,,,,,,,,,0.265,0.36264,39.6,,,10.6504,18.48172,699.2,,,,0,0
00:09:53_810,593810,17:43,58,60,100,100,94,100,5,12,18,93,90,120,85,97,99,,,,,,,,,,,,,0.27,0.35873,39.7,,,10.66301,17.42867,702.1,,,,0,0
00:09:53_820,593820,17:43,58,60,100,100,94,100,5,12,18,93,90,120,85,97,99,,,,,,,,,,,,,0.265,0.35702,39.7,,,10.64239,17.26827,705,,,,0,0
00:09:53_830,593830,17:43,58,60,100,100,94,100,5,12,18,93,90,120,85,97,99,,,,,,,,,,,,,0.25,0.35507,39.7,,,10.61138,16.5358,707.7,,,,0,0
00:09:53_840,593840,17:43,58,60,100,100,94,100,5,12,18,93,90,120,85,97,99,,,,,,,,,,,,,0.215,0.35311,39.7,,,10.58271,15.68198,710.3,,,,0,0
00:09:53_850,593850,17:43,58,60,100,100,94,100,5,12,18,93,90,120,85,97,99,,,,,,,,,,,,,0.15,0.34994,39.7,,,10.57694,15.1341,712.9,,,,0,0
00:09:53_860,593860,17:43,58,60,100,100,94,100,5,12,18,93,90,120,85,97,99,,,,,,,,,,,,,0.095,0.34872,39.7,,,10.45618,13.81914,715.2,,,,0,0
00:09:53_870,593870,17:43,58,60,100,100,94,100,5,12,18,93,90,120,85,97,99,,,,,,,,,,,,,0.02,0.34725,39.7,,,10.28626,12.48751,717.2,,,,0,0
00:09:53_880,593880,17:43,58,60,100,100,94,100,5,12,18,93,90,120,85,97,99,,,,,,,,,,,,,-0.04,0.34554,39.8,,,9.80321,9.16981,718.8,,,,0,0
00:09:53_890,593890,17:43,58,60,100,100,94,100,5,12,18,93,90,120,85,97,99,,,,,,,,,,,,,-0.095,0.34212,39.8,,,9.23615,4.32515,719.5,,,,0,0
00:09:53_900,593900,17:43,58,60,100,100,94,100,5,12,18,93,90,120,85,97,99,,,,,,,,,,,,,-0.125,0.34017,39.8,,,8.97148,0.98404,719.7,,,,0,0
00:09:53_910,593910,17:43,58,60,100,100,94,100,5,12,18,93,90,120,85,97,99,,,,,,,,,,,,,-0.15,0.33822,39.8,,,9.15111,0.51174,719.7,,,,0,0
00:09:53_920,593920,17:43,58,60,100,100,94,100,5,12,18,93,90,120,85,97,99,,,,,,,,,,,,,-0.16,0.33602,39.8,,,9.48965,0.09645,719.8,,,,0,0
00:09:53_930,593930,17:43,58,60,100,100,94,100,5,12,18,93,90,120,85,97,99,,,,,,,,,,,,,-0.16,0.33138,39.8,,,9.61557,-8.04285,718.4,,,,0,0
00:09:53_940,593940,17:43,58,60,100,100,94,100,5,12,18,93,90,120,85,97,99,,,,,,,,,,,,,-0.16,0.32894,39.9,,,9.1352,-16.09006,715.7,,,,0,0
00:09:53_950,593950,17:43,58,60,100,100,94,100,5,12,18,93,90,120,85,97,99,,,,,,,,,,,,,-0.16,0.32698,39.9,,,8.57391,-16.29096,713,,,,0,0
00:09:53_960,593960,17:43,58,60,100,100,94,100,5,12,18,93,90,120,85,97,99,,,,,,,,,,,,,-0.155,0.32527,39.9,,,7.63584,-24.15086,709,,,,0,0
00:09:53_970,593970,17:43,58,60,100,100,94,100,5,12,18,93,90,120,85,97,99,,,,,,,,,,,,,-0.15,0.32161,39.9,,,6.74977,-30.21172,704,,,,0,0
00:09:53_980,593980,17:43,58,60,100,100,94,100,5,12,18,93,90,120,85,97,99,,,,,,,,,,,,,-0.145,0.32039,39.9,,,6.3371,-29.15134,699.1,,,,0,0
00:09:53_990,593990,17:43,58,60,100,100,94,100,5,12,18,93,90,120,85,97,99,,,,,,,,,,,,,-0.145,0.31941,39.9,,,6.05041,-28.25961,694.4,,,,0,0
00:09:54_000,594000,17:43,58,60,100,100,94,100,5,12,18,93,90,120,85,97,99,,,,,,,,,,,,,-0.14,0.31893,39.9,,,6.13551,-28.61807,689.6,,,,0,0
00:09:54_010,594010,17:43,58,60,100,100,94,100,5,12,18,93,90,120,85,97,99,,,,,,,,,,,,,-0.14,0.31844,39.9,,,6.04073,-30.01658,684.6,,,,0,0
00:09:54_020,594020,17:43,58,60,100,100,94,100,5,12,18,93,90,120,85,97,99,,,,,,,,,,,,,-0.135,0.31844,39.9,,,5.86426,-30.61454,679.5,,,,0,0
00:09:54_030,594030,17:43,58,60,100,100,94,100,5,12,18,93,90,120,85,97,99,,,,,,,,,,,,,-0.135,0.31844,39.9,,,5.74447,-29.78827,674.6,,,,0,0
00:09:54_040,594040,17:43,58,60,100,100,94,100,5,12,18,93,90,120,85,97,99,,,,,,,,,,,,,-0.135,0.3177,39.9,,,5.47873,-30.16663,669.5,,,,0,0
00:09:54_050,594050,17:43,58,60,100,100,94,100,5,12,18,93,90,120,85,97,99,,,,,,,,,,,,,-0.135,0.31746,39.9,,,5.28644,-30.42444,664.5,,,,0,0
00:09:54_060,594060,17:43,58,60,100,100,94,100,5,12,18,93,90,120,85,97,99,,,,,,,,,,,,,-0.135,0.31722,39.9,,,5.22896,-30.20664,659.4,,,,0,0
00:09:54_070,594070,17:43,58,60,100,100,94,100,5,12,18,93,90,120,85,97,99,,,,,,,,,,,,,-0.135,0.31648,39.9,,,5.14512,-29.81106,654.5,,,,0,0
00:09:54_080,594080,17:43,58,60,100,100,94,100,5,12,18,93,90,120,85,97,99,,,,,,,,,,,,,-0.13,0.31551,39.9,,,5.11876,-29.56942,649.5,,,,0,0
00:09:54_090,594090,17:43,58,60,100,100,94,100,5,12,18,93,90,120,85,97,99,,,,,,,,,,,,,-0.13,0.31306,39.8,,,5.10305,-29.27194,644.6,,,,0,0
00:09:54_100,594100,17:43,58,60,100,100,94,100,5,12,18,93,90,120,85,97,99,,,,,,,,,,,,,-0.125,0.31184,39.8,,,5.04644,-29.12801,639.8,,,,0,0
00:09:54_110,594110,17:43,58,60,100,100,94,100,5,12,18,93,90,120,85,97,99,,,,,,,,,,,,,-0.125,0.31087,39.8,,,4.98774,-29.19333,634.9,,,,0,0
00:09:54_120,594120,17:43,58,60,100,100,94,100,5,12,18,93,90,120,85,97,99,,,,,,,,,,,,,-0.12,0.30989,39.8,,,4.89695,-29.08419,630.1,,,,0,0
00:09:54_130,594130,17:43,58,60,100,100,94,100,5,12,18,93,90,120,85,97,99,,,,,,,,,,,,,-0.115,0.30891,39.8,,,4.8183,-28.69721,625.3,,,,0,0
00:09:54_140,594140,17:43,58,60,100,100,94,100,5,12,18,93,90,120,85,97,99,,,,,,,,,,,,,-0.115,0.30867,39.8,,,4.7854,-28.34076,620.6,,,,0,0
00:09:54_150,594150,17:43,58,60,100,100,94,100,5,12,18,93,90,120,85,97,99,,,,,,,,,,,,,-0.115,0.30891,39.7,,,4.74276,-28.13679,615.9,,,,0,0
00:09:54_160,594160,17:43,58,60,100,100,94,100,5,12,18,93,90,120,85,97,99,,,,,,,,,,,,,-0.115,0.30916,39.7,,,4.72227,-28.1648,611.2,,,,0,0
00:09:54_170,594170,17:43,58,60,100,100,94,100,5,12,18,93,90,120,85,97,99,,,,,,,,,,,,,-0.115,0.30891,39.7,,,4.70943,-28.00652,606.5,,,,0,0
00:09:54_180,594180,17:43,58,60,100,100,94,100,5,12,18,93,90,120,85,97,99,,,,,,,,,,,,,-0.115,0.30867,39.7,,,4.6669,-27.48634,601.9,,,,0,0
00:09:54_190,594190,17:43,58,60,100,100,94,100,5,12,18,93,90,120,85,97,99,,,,,,,,,,,,,-0.115,0.30818,39.7,,,4.62581,-27.04347,597.4,,,,0,0
00:09:54_200,594200,17:43,58,60,100,100,94,100,5,12,18,93,90,120,85,97,99,,,,,,,,,,,,,-0.11,0.30769,39.6,,,4.56954,-26.95212,592.9,,,,0,0
00:09:54_210,594210,17:43,58,60,100,100,94,100,5,12,18,93,90,120,85,97,99,,,,,,,,,,,,,-0.105,0.30696,39.6,,,4.51136,-26.8501,588.5,,,,0,0
00:09:54_220,594220,17:43,58,60,100,100,94,100,5,12,18,93,90,120,85,97,99,,,,,,,,,,,,,-0.105,0.30672,39.6,,,4.48051,-26.50548,584.1,,,,0,0
00:09:54_230,594230,17:43,58,60,100,100,94,100,5,12,18,93,90,120,85,97,99,,,,,,,,,,,,,-0.1,0.30672,39.6,,,4.41462,-25.88374,579.7,,,,0,0
00:09:54_240,594240,17:43,58,60,100,100,94,100,5,12,18,93,90,120,85,97,99,,,,,,,,,,,,,-0.095,0.30769,39.6,,,4.37055,-25.63847,575.5,,,,0,0
00:09:54_250,594250,17:43,58,60,100,100,94,100,5,12,18,93,90,120,85,97,99,,,,,,,,,,,,,-0.095,0.30867,39.6,,,4.34951,-25.83243,571.2,,,,0,0
00:09:54_260,594260,17:43,58,60,100,100,94,100,5,12,18,93,90,120,85,97,99,,,,,,,,,,,,,-0.09,0.3094,39.6,,,4.32608,-25.68797,566.9,,,,0,0
00:09:54_270,594270,17:43,58,60,100,100,94,100,5,12,18,93,90,120,85,97,99,,,,,,,,,,,,,-0.085,0.31013,39.6,,,4.30992,-25.17225,562.7,,,,0,0
00:09:54_280,594280,17:43,58,60,100,100,94,100,5,12,18,93,90,120,85,97,99,,,,,,,,,,,,,-0.085,0.31062,39.6,,,4.23976,-24.80687,558.5,,,,0,0
00:09:54_290,594290,17:43,58,60,100,100,94,100,5,12,18,93,90,120,85,97,99,,,,,,,,,,,,,-0.085,0.31111,39.6,,,4.16353,-24.7169,554.4,,,,0,0
00:09:54_300,594300,17:43,58,60,100,100,94,100,5,12,18,93,90,120,85,97,99,,,,,,,,,,,,,-0.08,0.31111,39.6,,,4.15495,-24.81353,550.3,,,,0,0
00:09:54_310,594310,17:43,58,60,100,100,94,100,5,12,18,93,90,120,85,97,99,,,,,,,,,,,,,-0.055,0.31111,39.6,,,4.08085,-24.30451,546.2,,,,0,0
00:09:54_320,594320,17:43,58,60,100,100,94,100,5,12,18,93,90,120,85,97,99,,,,,,,,,,,,,-0.03,0.31136,39.6,,,4.05846,-23.87297,542.3,,,,0,0
00:09:54_330,594330,17:43,58,60,100,100,94,100,5,12,18,93,90,120,85,97,99,,,,,,,,,,,,,-0.03,0.31136,39.6,,,4.05846,-23.87297,538.3,,,,0,0
00:09:54_340,594340,17:43,58,60,100,100,94,100,5,12,18,93,90,120,85,97,99,,,,,,,,,,,,,-0.005,0.31209,39.6,,,4.04037,-23.70765,534.3,,,,0,0
00:09:54_350,594350,17:43,58,60,100,100,94,100,5,12,18,93,90,120,85,97,99,,,,,,,,,,,,,-0.005,0.31209,39.6,,,4.04037,-23.70765,530.4,,,,0,0
00:09:54_360,594360,17:43,58,60,100,100,94,100,5,12,18,93,90,120,85,97,99,,,,,,,,,,,,,-0.005,0.31209,39.6,,,4.04037,-23.70765,526.4,,,,0,0
00:09:54_370,594370,17:43,58,60,100,100,94,100,5,12,18,93,90,120,85,97,99,,,,,,,,,,,,,-0.005,0.31209,39.6,,,4.04037,-23.70765,522.5,,,,0,0
00:09:54_380,594380,17:43,58,60,100,100,94,100,5,12,18,93,90,120,85,97,99,,,,,,,,,,,,,0.01,0.31453,39.7,,,3.89513,-23.42543,518.6,,,,0,0
00:09:54_390,594390,17:43,58,60,100,100,94,100,5,12,18,93,90,120,85,97,99,,,,,,,,,,,,,-0.015,0.31453,39.7,,,3.8757,-23.40749,514.7,,,,0,0
00:09:54_400,594400,17:43,58,60,100,100,94,100,5,12,18,93,90,120,85,97,99,,,,,,,,,,,,,-0.055,0.31526,39.7,,,3.80968,-23.36752,510.8,,,,0,0
00:09:54_410,594410,17:43,58,60,100,100,94,100,5,12,18,93,90,120,85,97,99,,,,,,,,,,,,,-0.085,0.31575,39.7,,,3.77604,-23.42065,506.9,,,,0,0
00:09:54_420,594420,17:43,58,60,100,100,94,100,5,12,18,93,90,120,85,97,99,,,,,,,,,,,,,-0.1,0.316,39.7,,,3.73149,-23.16779,503,,,,0,0
00:09:54_430,594430,17:43,58,60,100,100,94,100,5,12,18,93,90,120,85,97,99,,,,,,,,,,,,,-0.115,0.31624,39.7,,,3.71732,-22.76911,499.2,,,,0,0
